[
    {
        "Name": "M/s NSR Industries",
        "Latitude": 17.0757,
        "Longitude": 82.1360,
        "Contact": "+91-8912512299",
        "Address": "Plot No. 83 & 84, IDA, Phase-1, Peddapuram, Distt - East Godavari, Andhra Pradesh - 533437"
    },
    {
        "Name": "M/s BR Bio Diesel Private Limited",
        "Latitude": 16.3067,
        "Longitude": 80.4365,
        "Contact": "+91 9550999286; +91 9739697624",
        "Address": "SY No. 564, Perecherla (V), Medikonduru(m), Guntur District, Andhra Pradesh-522006"
    },
    {
        "Name": "M/s Elite Natural Oils and Fuels Pvt. Ltd",
        "Latitude": 16.9891,
        "Longitude": 82.2475,
        "Contact": "+91 9949514115",
        "Address": "D. No.: 1-22-14/3, FF-8, ABC Apartments, Sri Ram Nagar, Kakinada District, Andhra Pradesh - 533003"
    },
    {
        "Name": "M/s Seshu Group Biodiesel Manufacturing Industry",
        "Latitude": 16.3067,
        "Longitude": 80.4365,
        "Contact": "+91 8887636464 / 9176909990",
        "Address": "D. N. 5-60-1/173, Devapuram, 5th Line, Guntur, Andhra Pradesh - 522002"
    },
    {
        "Name": "M/s BioD Energy (India) Pvt Ltd",
        "Latitude": 28.1027,
        "Longitude": 76.5796,
        "Contact": "011-47289900",
        "Address": "Plot No 2-5, Sector-9, Phase-I, IMT Bawal, Rewari, Haryana"
    },
    {
        "Name": "M/s RN Fuels India Pvt. Ltd.",
        "Latitude": 28.4029,
        "Longitude": 77.3190,
        "Contact": "+91-9650955990, +91 9899758485",
        "Address": "40th KM Milestone, Mathura Road, Jharsaintly Village, Ballabhagarh, Faridabad, Haryana - 121004"
    },
    {
        "Name": "M/s Sciencefirst Technologies Private Limited",
        "Latitude": 28.4029,
        "Longitude": 77.3190,
        "Contact": "+91-8800225967, 9971609176",
        "Address": "Khasra No. 10/2 & 11/2, Mustil No. 6, Village Fajupur Khadar, Faridabad, Haryana - 121101"
    },
    {
        "Name": "M/s Pyrene Industries",
        "Latitude": 12.9716,
        "Longitude": 77.5946,
        "Contact": "080-26321735, 9448049966",
        "Address": "No. 16, Doddakalasandra, Kanakapura Road, Bangalore, Karnataka - 560062"
    },
    {
        "Name": "M/s M11 Energy Transition Private Limited",
        "Latitude": 12.4220,
        "Longitude": 76.6840,
        "Contact": "+91 7090777640, 7259207777",
        "Address": "No. 389, Kaveri Layout, M B Road, Srirangapatna, Mandya, Karnataka - 571438"
    },
    {
        "Name": "M/s Muenzer Bharat Private Limited",
        "Latitude": 19.0330,
        "Longitude": 73.0297,
        "Contact": "022-27724718, 9326349335",
        "Address": "Plot No. D-177 A, MIDC, TTC Industrial Area, Nerul, Navi Mumbai, Maharashtra - 400706"
    },
    {
        "Name": "M/s E Shakti Binary Currents Private Limited",
        "Latitude": 19.8762,
        "Longitude": 75.3433,
        "Contact": "+91-9403922222",
        "Address": "W-79(G), MIDC area, Chikalthana, Aurangabad, Maharashtra - 431007"
    },
    {
        "Name": "M/s Unicon Fibro Private Limited",
        "Latitude": 19.0434,
        "Longitude": 72.8401,
        "Contact": "+91-9820065919",
        "Address": "6B, Anandnagar, Sitladevi Temple Road, Mahim West, Mumbai, Maharashtra - 400016"
    },
    {
        "Name": "M/s FAMEXIMPEX TEKNOLOGIES PVT. LTD.",
        "Latitude": 21.1458,
        "Longitude": 79.0882,
        "Contact": "+91-8793031714, 9372701007",
        "Address": "B-7/7, Butibori MIDC Area, Village Tembhari, Tehsil Hingna, Nagpur, Maharashtra - 441122"
    },
    {
        "Name": "M/s Aris Green Fuels Private Limited",
        "Latitude": 18.7333,
        "Longitude": 73.3333,
        "Contact": "+91-7304745554",
        "Address": "Shed No. 2, Survey No. 35, Hissa No. 2, Village Honad, Taluka – Khalapur, Maharashtra - 410203"
    },
    {
        "Name": "M/s Rajputana Biodiesel Pvt. Ltd.",
        "Latitude": 26.9260,
        "Longitude": 75.7890,
        "Contact": "9509222333",
        "Address": "G-24, RIICO Industrial Area Phulera, Tehsil-Phulera, District - Jaipur, Rajasthan - 303338"
    },
    {
        "Name": "M/s KNP Arises Green Energy Pvt Ltd",
        "Latitude": 26.8110,
        "Longitude": 75.8028,
        "Contact": "9983635111",
        "Address": "G-2280 RIICO Industrial Area, Sitapura, Tehsil Sanganer, Jaipur, Rajasthan - 302022"
    },
    {
        "Name": "M/s Agarwal Green Energy Pvt. Ltd.",
        "Latitude": 26.7025,
        "Longitude": 77.8938,
        "Contact": "9829013133",
        "Address": "F-309, Industrial Area Growth Center Ext., Dholpur, Rajasthan"
    },
    {
        "Name": "M/s DV Chemicals",
        "Latitude": 26.7025,
        "Longitude": 77.8938,
        "Contact": "+91 8233303019",
        "Address": "B-81 A, Growth Centre, RIICO Industrial Area, Ondela Road, Dholpur, Rajasthan - 328001"
    },
    {
        "Name": "M/s Kissan Envirocare",
        "Latitude": 28.2030,
        "Longitude": 76.8606,
        "Contact": "+91 9215600828",
        "Address": "E-44/D1, Industrial Area, Khushkhera, Bhiwadi, Alwar, Rajasthan"
    },
    {
        "Name": "M/s Pan Oleo Energy Limited",
        "Latitude": 12.9330,
        "Longitude": 79.3336,
        "Contact": "9176609679",
        "Address": "1/261, Ponnai Road, Mukundarayapuram, Walajah Taluk, Ranipet District, Tamil Nadu - 632405"
    },
    {
        "Name": "M/s Geekay Bio Products",
        "Latitude": 10.7380,
        "Longitude": 77.5140,
        "Contact": "9865290000",
        "Address": "610/1, Therpathai, Gethelrev Village, Dharapuram Taluk, Tiruppur District, Tamil Nadu - 638107"
    },
    {
        "Name": "M/s FLUMES ENERGY",
        "Latitude": 11.0168,
        "Longitude": 76.9558,
        "Contact": "9585251661 / 9585258282",
        "Address": "T.S.No. 93, SIDCO Industrial Estate, LIC Colony, SIDCO, Coimbatore, Tamil Nadu - 641021"
    },
    {
        "Name": "M/s SHINE BIO FUELS",
        "Latitude": 11.2190,
        "Longitude": 78.1674,
        "Contact": "8124411666",
        "Address": "4/205, Veppankadu, Konur (PO), Namakkal, Tamil Nadu - 637207"
    },
    {
        "Name": "M/s AR Energy (AREG) Private Limited",
        "Latitude": 13.0827,
        "Longitude": 80.2707,
        "Contact": "9789807007",
        "Address": "Plot No. 16 & 17, Manali Pudhunagar, Sadayankuppam, Chennai, Tamil Nadu - 600103"
    },
    {
        "Name": "M/s SS Bio Diesel Private Limited",
        "Latitude": 13.0827,
        "Longitude": 80.2707,
        "Contact": "+91 9940431485 / 9940351383",
        "Address": "Door 17 B, S/F.No. 165/2A.1B, Munusamy Street, Athipet, Tamil Nadu"
    },
    {
        "Name": "M/s Erigo Bio Fuels Private Limited",
        "Latitude": 12.4900,
        "Longitude": 75.0000,
        "Contact": "+91 8590600060",
        "Address": "Pearl Kannur, Ananthapuram Industrial Area, VIA, Kasaragod, Kerala - 671321"
    },
    {
        "Name": "M/s Life Biofuels LLP",
        "Latitude": 11.2588,
        "Longitude": 75.7804,
        "Contact": "+91 7356623111",
        "Address": "5/1498 G Pent House, Opposite Malayala Manorama, Kozhikode - 673001, Kerala"
    },
    {
        "Name": "M/s World Vihar Private Limited",
        "Latitude": 10.5276,
        "Longitude": 76.2144,
        "Contact": "+91 9447525588, 808650588",
        "Address": "CTM Complex, Kokkalai, Thrissur, Kerala - 680021"
    },
    {
        "Name": "M/s Synergist Bio Fuels",
        "Latitude": 10.3370,
        "Longitude": 76.2310,
        "Contact": "+91 7356885543 / 7736385543",
        "Address": "BLDG No: V/220 C, Unique Depot Block Bus Stop, Avittathur, Irinjalakkuda, Thrissur, Kerala - 680683"
    },
    {
        "Name": "M/s K. Nandini Refineries",
        "Latitude": 28.6330,
        "Longitude": 79.8030,
        "Contact": "+91-8474914940, +91-9568552407",
        "Address": "6/1, Village Hetamdandi, Amaria, Tehsil & District Pilibhit, Uttar Pradesh - 262121"
    },
    {
        "Name": "M/s R.R.S.P Marketing Pvt. Ltd.",
        "Latitude": 27.6000,
        "Longitude": 78.0500,
        "Contact": "+91-9760064204",
        "Address": "A-15, Industrial Estate, Hathras, Uttar Pradesh - 204101"
    },
    {
        "Name": "M/s Krishna General Engineering Works",
        "Latitude": 28.3640,
        "Longitude": 79.4150,
        "Contact": "+91-7906653301",
        "Address": "1/1 Industrial Estate, C B Ganj, Bareilly, Uttar Pradesh - 243502"
    },
    {
        "Name": "M/s Namberdar Bio Fuels Pvt. Ltd.",
        "Latitude": 28.4526,
        "Longitude": 77.7085,
        "Contact": "+91-9990004645",
        "Address": "D-42, Sikandrabad Industrial Area, Sikandrabad, Bulandshahr, Uttar Pradesh - 203205"
    },
    {
        "Name": "M/s Nirvaanraj Energy Private Ltd.",
        "Latitude": 28.9845,
        "Longitude": 77.7064,
        "Contact": "+91 9027901153",
        "Address": "Khasra No. 129, Village Uldeypur, Tehsil Meerut, District Meerut, Uttar Pradesh - 250001"
    },
    {
        "Name": "M/s Vineet Enterprise",
        "Latitude": 26.7796,
        "Longitude": 79.0230,
        "Contact": "+91 9219591512",
        "Address": "Katra Shamsher Khan, Near Andhava House, Takia Azad Gaan, Etawah, Uttar Pradesh - 206001"
    },
    {
        "Name": "M/s Vajrakaya Green Power (P) Ltd",
        "Latitude": 25.3176,
        "Longitude": 82.9739,
        "Contact": "+91 9838632876",
        "Address": "B-38/3-A-3-G, Shop No. 5, Laxmi Complex, Mahmoorganj, Varanasi, Uttar Pradesh - 221010"
    },
    {
        "Name": "M/s IBP Biofuel India Pvt. Ltd.",
        "Latitude": 27.5580,
        "Longitude": 78.6593,
        "Contact": "+91 9719819561, 9415964087",
        "Address": "GATA No. 190, Village Nagla Lodha, Awagarh, Etah, Uttar Pradesh - 207301"
    },
    {
        "Name": "CSIR - Indian Institute of Petroleum (IIP)",
        "Latitude": 30.3165,
        "Longitude": 78.0322,
        "Contact": "0135-2525756, 2525903",
        "Address": "P. O. - IIP, Mohkampur, Haridwar Road, Mohkampur, Dehradun, Uttarakhand "
    },
    {
        "Name": "M/s Sunshine Industries",
        "Latitude": 22.7284,
        "Longitude": 71.6371,
        "Contact": "+91-7778983011",
        "Address": "Ground Floor, Brahmanand Chambers, Opp. Arts College, Surendranagar, Gujarat - 363001"
    },
    {
        "Name": "M/s Yamuna Bio Energy Pvt Ltd",
        "Latitude": 22.3072,
        "Longitude": 73.1812,
        "Contact": "+91-9978967722",
        "Address": "1st Floor, A 3 Ganesh Nagar Housing Society, Ramakaka Temple Road, Vadodara, Gujarat - 391740"
    },
    {
        "Name": "M/s Bluestone Energy Pvt Ltd",
        "Latitude": 22.7500,
        "Longitude": 72.6833,
        "Contact": "+91-7777024015",
        "Address": "Block No. 443, Dantali, Old N.H. No. 8, Kheda, Gujarat"
    },
    {
        "Name": "M/s Surya Enviro",
        "Latitude": 30.9578,
        "Longitude": 76.7914,
        "Contact": "+91-9041935499",
        "Address": "Plot No. 22-C, Industrial Area, Lodhimajra, Baddi, District Solan, Himachal Pradesh - 174102"
    },
    {
        "Name": "M/s Bengal Biodiesel",
        "Latitude": 22.4711,
        "Longitude": 88.2295,
        "Contact": "+91-6291829965",
        "Address": "Village & PO Andharmanik, Bishnupur, South 24 Parganas, West Bengal - 743503"
    },
    {
        "Name": "M/s Nextgen Biofuels",
        "Latitude": 16.3067,
        "Longitude": 80.4365,
        "Contact": "+91-94944535357",
        "Address": "D.N. 4-383/14, Thimmapuram village, Guntur district, Andhra Pradesh"
    },
    {
        "Name": "M/s Vzen Industries Private Limited",
        "Latitude": 22.6197,
        "Longitude": 88.4400,
        "Contact": "+91-9831777127",
        "Address": "502, PS Aviator, Chinar Park, New Town, Kolkata - 700136"
    },
    {
        "Name": "M/s Lottus (Biofuels)",
        "Latitude": 22.0574,
        "Longitude": 78.9382,
        "Contact": "9867535098",
        "Address": "Part of Plot No. 24, Imlikheda Industrial Area, Nagpur Road, Chhindwara, Madhya Pradesh - 480001"
    },
    {
        "Name": "M/s Greentech Petrochem Pvt Ltd",
        "Latitude": 23.2038,
        "Longitude": 75.0030,
        "Contact": "9892860532",
        "Address": "Village Ghatgara, Badnawar District, Dhar, Madhya Pradesh - 454660"
    },
    {
        "Name": "M/s Samradh Kissan Seva Bio Diesel Private Limited",
        "Latitude": 25.4320,
        "Longitude": 77.6640,
        "Contact": "9301711816",
        "Address": "S.No.173/2, Purabdana, District Shivpuri, Madhya Pradesh - 473551"
    },
    {
        "Name": "CSIR-CMERI Centre of Excellence for Farm Machinery",
        "Latitude": 30.9008,
        "Longitude": 75.8573,
        "Contact": "+91 9216868264",
        "Address": "Gill Road, Ludhiana, Punjab - 141006"
    },
    {
        "Name": "M/s Advaith Biofuels Ltd.",
        "Latitude": 17.3850,
        "Longitude": 78.4867,
        "Contact": "+91 8374998678",
        "Address": "2nd Floor, RTC Complex, Kachiguda, Hyderabad - 500027, Telangana"
    },
    {
        "Name": "M/s Srilata Enterprise Private Limited",
        "Latitude": 17.2038,
        "Longitude": 78.0820,
        "Contact": "+91 9989944449, 998984444",
        "Address": "Kottur Village, Rangareddy District, Telangana - 509228"
    },
    {
        "Name": "M/s Vasudha Devi Bio Energy Private Limited",
        "Latitude": 17.9700,
        "Longitude": 79.5940,
        "Contact": "+91 7680942424",
        "Address": "Industrial Park, Kazipet, Hanumakonda District, Telangana"
    },
    {
        "Name": "M/s Goal Gas Private Limited",
        "Latitude": 25.5750,
        "Longitude": 83.9790,
        "Contact": "+91 6205775592, 9955103031",
        "Address": "Village Kuwan More, Buxar, Bihar - 802112"
    },
    {
        "name": "Susim Enterprises",
        "latitude": 20.4500,
        "longitude": 85.9000,
        "contact": "-",
        "address": "Jagatpur, Cuttack district, Odisha"
    },
    {
        "name": "Shree Durga Petrochemicals",
        "latitude": 20.4500,
        "longitude": 85.9000,
        "contact": "9778638934",
        "address": "New Industrial Estate, Phase-2, Jagatpur, Cuttack – 754021, Odisha"
    },
    {
        "name": "Raj Lubricants",
        "latitude": 21.5000,
        "longitude": 86.9000,
        "contact": "9437054893",
        "address": "Januganj, Balasore district, Odisha"
    },
    {
        "name": "N. S. Chemicals",
        "latitude": 22.2200,
        "longitude": 84.8500,
        "contact": "9437220798",
        "address": "Chhend Colony, Rourkela, Sundargarh district, Odisha"
    },
    {
        "name": "Ratna Industries",
        "latitude": 22.2200,
        "longitude": 84.8500,
        "contact": "9437047775",
        "address": "Kuarmunda / Jamunanki, Sundargarh district, Odisha"
    },
    {
        "name": "Phoenix India",
        "latitude": 20.5500,
        "longitude": 86.4500,
        "contact": "8596020218",
        "address": "Kaligada / Jadupur / Marsaghai, Kendrapara district, Odisha"
    },
    {
        "name": "Neet Preservatives",
        "latitude": 20.4797,
        "longitude": 84.2331,
        "contact": "9456736273",
        "address": "91 Zone, Phulbani Town, Kandhamal District, Odisha"
    },
    {
        "name": "BMR Resources",
        "latitude": 21.5250,
        "longitude": 83.8728,
        "contact": "7295539292",
        "address": "B-248, Azad Chowk, Hirakud Dam, Hirakud, Sambalpur, Odisha "
    },
    {
        "name": "Khushi Enterprises",
        "latitude": 21.4516,
        "longitude": 83.5027,
        "contact": "7945872367",
        "address": "Bhatli, Bargarh District, Odisha"
    },
    {
        "name": "Adoxy Export Pvt. Ltd.",
        "latitude": 20.8500,
        "longitude": 85.1000,
        "contact": "9346272723",
        "address": "C/O Ananta Pattanayak, R R Colony, Basudevpur, Parang, Angul, Odisha "
    },
    {
        "name": "Somsak Company",
        "latitude": 20.2961,
        "longitude": 85.8245,
        "contact": "8865993461",
        "address": "Basisthanagar, Old Town, Bhubaneswar, Odisha "
    },
    {
        "name": "Sushil Trader",
        "latitude": 22.2286,
        "longitude": 84.8053,
        "contact": "9934633561",
        "address": "Banposh, Rourkela (listed as Rourkela/Boudh), Sundargarh District, Odisha"
    },
    {
        "name": "Gravita India Pvt. Ltd.",
        "latitude": 20.2961,
        "longitude": 85.8245,
        "contact": "7677833232",
        "address": "Bhubaneswar, Khordha District, Odisha"
    },
    {
        "name": "Deo Enterprises",
        "latitude": 21.4682,
        "longitude": 83.9754,
        "contact": "8176987080",
        "address": "Sambalpur, Sambalpur District, Odisha"
    }
]